[
  {
    "title": "'Prarado savo tapatybę': Kodėl „Target“ sunkiai sekasi laimėti pirkėjų ir investuotojų palankumą",
    "country": "United States of America",
    "url": "naujienos/2025-07-15-e91cba.html",
    "lat": 39.7837304,
    "lng": -100.445882
  },
  {
    "title": "Kaip klimato kaita skatina miškų gaisrus Europoje",
    "country": "Spain",
    "url": "naujienos/2025-07-15-5fc703.html",
    "lat": 39.3260685,
    "lng": -4.8379791
  },
  {
    "title": "ProShares pakelta XRP ETF gavo NYSE Arca leidimą, ruošiasi prekybos debiutui.",
    "country": "United States of America",
    "url": "naujienos/2025-07-15-01c679.html",
    "lat": 39.7837304,
    "lng": -100.445882
  },
  {
    "title": "Robertas Kiyosaki laikinai sustabdo Bitcoin pirkimą ir įspėja apie pasaulinę krizę.",
    "country": "Netherlands",
    "url": "naujienos/2025-07-15-ca59b2.html",
    "lat": 52.2434979,
    "lng": 5.6343227
  },
  {
    "title": "GM paskelbė sustabdomą pardavimą kelioms 2026 metų Chevy Traverse SUV.",
    "country": "United States of America",
    "url": "naujienos/2025-07-15-c2449f.html",
    "lat": 39.7837304,
    "lng": -100.445882
  },
  {
    "title": "Kaip užregistruoti savo automobilio SORN su DVLA: išsamus vadovas, kaip išvengti didelių baudų",
    "country": "United Kingdom",
    "url": "naujienos/2025-07-15-90e021.html",
    "lat": 54.7023545,
    "lng": -3.2765753
  },
  {
    "title": "Melodingos muzikos pirmadienis: liepos 14 diena",
    "country": "United States of America",
    "url": "naujienos/2025-07-15-c25c13.html",
    "lat": 39.7837304,
    "lng": -100.445882
  },
  {
    "title": "Dekolonizuoti muzikos švietimą įvairiose institucijose",
    "country": "Singapore",
    "url": "naujienos/2025-07-15-fb07ca.html",
    "lat": 1.357107,
    "lng": 103.8194992
  },
  {
    "title": "Lewis Capaldi pristato įkvepiančią singlą „Survive“ laidoje „Fallon“",
    "country": "United Kingdom",
    "url": "naujienos/2025-07-15-4ca0b8.html",
    "lat": 54.7023545,
    "lng": -3.2765753
  },
  {
    "title": "Ar Feebas gali būti blizgus Pokémon Go?",
    "country": "Japan",
    "url": "naujienos/2025-07-15-f1667d.html",
    "lat": 36.5748441,
    "lng": 139.2394179
  },
  {
    "title": "Octopath Traveller bendraautorius kuria tris naujus originalius žaidimus, kurie pristatomi Tokijo žaidimų parodoje.",
    "country": "Japan",
    "url": "naujienos/2025-07-15-61c39d.html",
    "lat": 36.5748441,
    "lng": 139.2394179
  },
  {
    "title": "Profesionali grožio retušė",
    "country": "United States of America",
    "url": "naujienos/2025-07-15-5d0347.html",
    "lat": 39.7837304,
    "lng": -100.445882
  },
  {
    "title": "Žiūrėkite: visuomenė raginama laikytis atstumo nuo dramblio ruonių Kolumbo.",
    "country": "South Africa",
    "url": "naujienos/2025-07-15-602b1e.html",
    "lat": -28.8166236,
    "lng": 24.991639
  },
  {
    "title": "Lit Hub Kasdien: 2025 metų liepos 15 diena",
    "country": "Romania",
    "url": "naujienos/2025-07-15-e3173f.html",
    "lat": 45.9852129,
    "lng": 24.6859225
  },
  {
    "title": "Įžadai ir kitos melagystės (Sue Whiting, Walker Books)",
    "country": "Australia",
    "url": "naujienos/2025-07-15-33becf.html",
    "lat": -24.7761086,
    "lng": 134.755
  },
  {
    "title": "Raudoni stogai Thornbury House priestato, sukūrė Healy Ryan architektai.",
    "country": "Australia",
    "url": "naujienos/2025-07-15-842539.html",
    "lat": -24.7761086,
    "lng": 134.755
  },
  {
    "title": "„Vaiduoklių“ salą Venecijoje išsinuomojusi grupė žada zoną be turistų.",
    "country": "Italy",
    "url": "naujienos/2025-07-26-1a6eb9.html",
    "lat": 42.6384261,
    "lng": 12.674297
  },
  {
    "title": "CBS atšaukė Colbertą, kyla klausimas: ar laukiame daugiau vėlyvo vakaro šou?",
    "country": "United States of America",
    "url": "naujienos/2025-07-26-77d2db.html",
    "lat": 39.7837304,
    "lng": -100.445882
  },
  {
    "title": "XRP kaina siekia $30? Analitikas atkreipia dėmesį į potencialų proveržį.",
    "country": "Netherlands",
    "url": "naujienos/2025-07-26-16cd9c.html",
    "lat": 52.2434979,
    "lng": 5.6343227
  },
  {
    "title": "Bitcoin kainos stebėjimas: optimizmas išlieka virš 114 000 USD ribos",
    "country": "United States of America",
    "url": "naujienos/2025-07-26-0fddf7.html",
    "lat": 39.7837304,
    "lng": -100.445882
  },
  {
    "title": "Šie 7 nauji šeimos automobiliai pasirodys rinkoje per artimiausius metus.",
    "country": "United States of America",
    "url": "naujienos/2025-07-26-62b19e.html",
    "lat": 39.7837304,
    "lng": -100.445882
  },
  {
    "title": "Peugeot 5008 hibridas GT ilgalaikėje testavimo programoje: patikimas didelio nuvažiuoto atstumo darbinis automobilis",
    "country": "United Kingdom",
    "url": "naujienos/2025-07-26-fd2d92.html",
    "lat": 54.7023545,
    "lng": -3.2765753
  },
  {
    "title": "Kokia yra vasaros daina? Štai kandidatai.",
    "country": "United States of America",
    "url": "naujienos/2025-07-26-ea6ea8.html",
    "lat": 39.7837304,
    "lng": -100.445882
  },
  {
    "title": "Jady išleidžia chaotiškai drąsų naują singlą „Baltas karstas“",
    "country": "United States of America",
    "url": "naujienos/2025-07-26-e8f745.html",
    "lat": 39.7837304,
    "lng": -100.445882
  },
  {
    "title": "SAMRO atnaujina paramą Basadi Muzikos apdovanojimuose 2025",
    "country": "South Africa",
    "url": "naujienos/2025-07-26-bcfcfe.html",
    "lat": -28.8166236,
    "lng": 24.991639
  },
  {
    "title": "Taylor Swift paskelbia, kad „Happy Gilmore 2“ yra privalomas žiūrėti – filme vaidina Travis Kelce.",
    "country": "United States of America",
    "url": "naujienos/2025-07-26-ad038f.html",
    "lat": 39.7837304,
    "lng": -100.445882
  },
  {
    "title": "Nintendo kovoja ne už konsolių, o už dėmesio karą.",
    "country": "Japan",
    "url": "naujienos/2025-07-26-466f27.html",
    "lat": 36.5748441,
    "lng": 139.2394179
  },
  {
    "title": "Krafton įsigyja Last Epoch studiją, Eleventh Hour Games.",
    "country": "South Korea",
    "url": "naujienos/2025-07-26-4d3d73.html",
    "lat": 36.638392,
    "lng": 127.6961188
  },
  {
    "title": "Metroid Prime 4: Beyond įvertintas „Switch“ Pietų Korėjoje",
    "country": "South Korea",
    "url": "naujienos/2025-07-26-78870f.html",
    "lat": 36.638392,
    "lng": 127.6961188
  },
  {
    "title": "2025 metų mangrovių fotografijos apdovanojimų nugalėtojai",
    "country": "United States of America",
    "url": "naujienos/2025-07-26-6ac44e.html",
    "lat": 39.7837304,
    "lng": -100.445882
  },
  {
    "title": "Profesionalus grožio retušavimas",
    "country": "United States of America",
    "url": "naujienos/2025-07-26-3c40ee.html",
    "lat": 39.7837304,
    "lng": -100.445882
  },
  {
    "title": "7 lengvi ir greiti žiemos trumpalaikiai pabėgimai Džohanešburge",
    "country": "South Africa",
    "url": "naujienos/2025-07-26-28ed57.html",
    "lat": -28.8166236,
    "lng": 24.991639
  },
  {
    "title": "Hastingas ir Hickey pateko į Australijos bestselerių sąrašą",
    "country": "Australia",
    "url": "naujienos/2025-07-26-578ff8.html",
    "lat": -24.7761086,
    "lng": 134.755
  },
  {
    "title": "Žymus meno kolekcionierius Davidas Geffenas paduotas į teismą buvusio vyro dėl sutarties pažeidimo.",
    "country": "United States of America",
    "url": "naujienos/2025-07-26-88d055.html",
    "lat": 39.7837304,
    "lng": -100.445882
  },
  {
    "title": "Prašytojams prieglobsčio bus leista išvykti iš Eppingo viešbučio, Aukštajam Teismui priėmus draudimą.",
    "country": "United Kingdom",
    "url": "naujienos/2025-08-19-a77c7e.html",
    "lat": 54.7023545,
    "lng": -3.2765753
  },
  {
    "title": "**Potvyniai atnešė riedulius, išgelbėjusius didžiąją dalį Časoto gyventojų.**\n\nArba:\n\n**Potvynis atnešė riedulius, apsaugojusius didžiąją dalį Časoto gyventojų.**",
    "country": "India",
    "url": "naujienos/2025-08-19-a65ffc.html",
    "lat": 22.3511148,
    "lng": 78.6677428
  },
  {
    "title": "Prašytojams prieglobsčio bus leista išvykti iš Eppingo viešbučio, Aukštajam Teismui priėmus įsaką. \n\n(Alternatively, a slightly more concise version:)\n\nPrašytojams prieglobsčio teks išvykti iš Eppingo viešbučio po Aukštojo Teismo įsako.",
    "country": "United Kingdom",
    "url": "naujienos/2025-08-20-b83f8d.html",
    "lat": 54.7023545,
    "lng": -3.2765753
  },
  {
    "title": "Daugiau prieglobsčio viešbučių susiduria su teisiniu iššūkiu po teismo sprendimo. \n\n(Alternatively, slightly more formal:)\n\nDaugiau viešbučių prieglobsčio prašytojams gresia teisiniai ginčai po teismo sprendimo.",
    "country": "England",
    "url": "naujienos/2025-08-20-3d132b.html",
    "lat": 52.5310214,
    "lng": -1.2649062
  },
  {
    "title": "**Liepą Jungtinės Karalystės infliacija pasiekė naują aukštumą.**\n\nOr, more concisely:\n\n**Infliacija Jungtinėje Karalystėje liepą pasiekė rekordą.** \n\nBoth are correct and natural-sounding Lithuanian. The second is slightly more punchy, like a news headline should be.",
    "country": "United Kingdom",
    "url": "naujienos/2025-08-20-ff820b.html",
    "lat": 54.7023545,
    "lng": -3.2765753
  }
]